[
   {
      "id":1,
      "name":"21세기연세의원",
      "lat":37.3668948,
      "lng":127.107657,
      "address":"경기도 성남시 분당구 성남대로 345, (정자동, 정자역프라자) 7층 701~703호",
      "major":""
   },
   {
      "id":2,
      "name":"3대정이비인후과의원",
      "lat":37.41014,
      "lng":127.129237,
      "address":"경기도 성남시 분당구 야탑로 95, (야탑동, 세신옴니코아) 2층",
      "major":"내과"
   },
   {
      "id":3,
      "name":"e-서울이비인후과의원",
      "lat":37.3861705,
      "lng":127.1235923,
      "address":"경기도 성남시 분당구 황새울로342번길 11, (서현동, 금호리빙스텔) 401호 402호",
      "major":""
   },
   {
      "id":4,
      "name":"고형기소아청소년과의원",
      "lat":37.412501,
      "lng":127.138736,
      "address":"경기도 성남시 분당구 장미로 139, (야탑동, 매화마을 공무원아파트상가) 201호",
      "major":""
   },
   {
      "id":5,
      "name":"김기환이비인후과의원",
      "lat":37.3378333,
      "lng":127.1165434,
      "address":"경기도 성남시 분당구 미금로 48, (구미동, 오성프라자) 305호",
      "major":""
   },
   {
      "id":6,
      "name":"김소아청소년과의원",
      "lat":37.3898932,
      "lng":127.1177147,
      "address":"경기도 성남시 분당구 동판교로 92, (백현동, 백현마을 가상가동) 2층 202호",
      "major":""
   },
   {
      "id":7,
      "name":"김정규이비인후과의원",
      "lat":37.3734512,
      "lng":127.1196496,
      "address":"경기도 성남시 분당구 내정로 170 302호 (수내동)",
      "major":""
   },
   {
      "id":8,
      "name":"김호수소아과의원",
      "lat":37.3697372,
      "lng":127.1233265,
      "address":"경기도 성남시 분당구 돌마로356번길 3, (수내동, 그랜드빌딩) 309호",
      "major":""
   },
   {
      "id":9,
      "name":"김홍철이비인후과의원",
      "lat":37.3636732,
      "lng":127.1165451,
      "address":"경기도 성남시 분당구 정자로 105, (정자동, 새소망전인교육센타) 302호",
      "major":""
   },
   {
      "id":10,
      "name":"네이버부속의원",
      "lat":37.3588478,
      "lng":127.1051678,
      "address":"경기도 성남시 분당구 정자일로 95, (정자동) 5층 일부호",
      "major":""
   },
   {
      "id":11,
      "name":"네이브키즈연세소아청소년과의원",
      "lat":37.4106269,
      "lng":127.1281972,
      "address":"경기도 성남시 분당구 야탑로81번길 10, (야탑동, 분당아미고타워) 3층 309-1호, 309-2호",
      "major":""
   },
   {
      "id":12,
      "name":"노블진내과의원",
      "lat":37.3503939,
      "lng":127.11172,
      "address":"경기도 성남시 분당구 돌마로 87, (금곡동, 골드프라자) 305호",
      "major":""
   },
   {
      "id":13,
      "name":"늘푸른산부인과의원",
      "lat":37.3629279,
      "lng":127.0998695,
      "address":"경기도 성남시 분당구 돌마로 79, (금곡동, 썬프라자) 3층 302~304호",
      "major":""
   },
   {
      "id":14,
      "name":"다나이비인후과의원",
      "lat":37.3503414,
      "lng":127.1103794,
      "address":"경기도 성남시 분당구 돌마로 75, (금곡동, 미금프라자) 501호",
      "major":""
   },
   {
      "id":15,
      "name":"닥터김이비인후과의원",
      "lat":37.3628738,
      "lng":127.1144706,
      "address":"경기도 성남시 분당구 내정로 29, (정자동, 금곡프라자) 201호",
      "major":""
   },
   {
      "id":16,
      "name":"도담소아청소년과의원",
      "lat":37.3747282,
      "lng":127.1068614,
      "address":"경기도 성남시 분당구 정자일로 248, (정자동, 파크뷰) 2층 204~209호",
      "major":""
   },
   {
      "id":17,
      "name":"동그란이비인후과의원",
      "lat":37.3664054,
      "lng":127.0684005,
      "address":"경기도 성남시 분당구 판교대장로 84, (대장동) 펠리씨티-1 3층 303호",
      "major":""
   },
   {
      "id":18,
      "name":"두리이비인후과의원",
      "lat":37.3508161,
      "lng":127.1075387,
      "address":"경기도 성남시 분당구 성남대로 170, (금곡동, 한국프라자) 603호",
      "major":""
   },
   {
      "id":19,
      "name":"라파이비인후과의원",
      "lat":37.3717108,
      "lng":127.1397755,
      "address":"경기도 성남시 분당구 분당로263번길 35, (서현동, 서현굿모닝프라자)",
      "major":""
   },
   {
      "id":24,
      "name":"메디피움의원",
      "lat":37.3979905,
      "lng":127.1125195,
      "address":"경기도 성남시 분당구 분당내곡로 159, (삼평동, 판교역KCC웰츠타워) A동 2층 3층",
      "major":""
   },
   {
      "id":25,
      "name":"명이비인후과의원",
      "lat":37.4058348,
      "lng":127.1219878,
      "address":"경기도 성남시 분당구 판교로 435, (야탑동) 동양프라자 304호",
      "major":""
   },
   {
      "id":26,
      "name":"미래이비인후과의원",
      "lat":37.4012839,
      "lng":127.1086461,
      "address":"경기도 성남시 분당구 판교역로 231, (삼평동, 에이치스퀘어 에스동) 219,220호",
      "major":""
   },
   {
      "id":27,
      "name":"베일러이화산부인과의원",
      "lat":37.3705055,
      "lng":127.1074624,
      "address":"경기도 성남시 분당구 성남대로 385, (정자동, 분당클리닉) 301호 302호",
      "major":""
   },
   {
      "id":28,
      "name":"봄소아청소년과의원",
      "lat":37.4037238,
      "lng":127.1156829,
      "address":"경기도 성남시 분당구 판교로 372, (삼평동, 스타식스코아1) 405호",
      "major":""
   },
   {
      "id":29,
      "name":"분당 헤스티아 여성의원",
      "lat":37.3496405,
      "lng":127.1095316,
      "address":"경기도 성남시 분당구 돌마로 68, (구미동) 분당프라자 202호",
      "major":""
   },
   {
      "id":30,
      "name":"분당365일의원",
      "lat":37.3507302,
      "lng":127.1082963,
      "address":"경기도 성남시 분당구 성남대로 165, (금곡동) 천사의도시1 오피스텔 2층 230호 및 231-1호",
      "major":""
   },
   {
      "id":31,
      "name":"분당박소아청소년과의원",
      "lat":37.3909478,
      "lng":127.1263489,
      "address":"경기도 성남시 분당구 양현로94번길 21, (이매동, 분당코아빌딩) 304호",
      "major":""
   },
   {
      "id":32,
      "name":"분당서울외과의원",
      "lat":37.3791818,
      "lng":127.1157387,
      "address":"경기도 성남시 분당구 황새울로258번길 36, (수내동, 광진프라자) 403호",
      "major":""
   },
   {
      "id":33,
      "name":"분당서울의원",
      "lat":37.4111823,
      "lng":127.1379453,
      "address":"경기도 성남시 분당구 벌말로 35, (야탑동, 대명빌딩) 203호",
      "major":""
   },
   {
      "id":34,
      "name":"분당서울이비인후과의원",
      "lat":37.3509246,
      "lng":127.1093795,
      "address":"경기도 성남시 분당구 성남대로 168, (금곡동, 미도프라자) 402호",
      "major":""
   },
   {
      "id":35,
      "name":"분당성모이비인후과의원",
      "lat":37.3590914,
      "lng":127.1069962,
      "address":"경기도 성남시 분당구 정자일로 100, (정자동, 미켈란쉐르빌) 2층 206, 207호",
      "major":""
   },
   {
      "id":36,
      "name":"분당소아청소년과의원",
      "lat":37.383782,
      "lng":127.1247659,
      "address":"경기도 성남시 분당구 중앙공원로39번길 49, (서현동) 서현 지엔느 203-1호",
      "major":""
   },
   {
      "id":37,
      "name":"분당연세산부인과의원",
      "lat":37.3628738,
      "lng":127.1144706,
      "address":"경기도 성남시 분당구 내정로 29, (정자동) 금곡프라자 205호",
      "major":""
   },
   {
      "id":38,
      "name":"분당연세의원",
      "lat":37.3503414,
      "lng":127.1103794,
      "address":"경기도 성남시 분당구 돌마로 75, (금곡동) 미금프라자 302호",
      "major":""
   },
   {
      "id":39,
      "name":"분당우리산부인과의원",
      "lat":37.3509246,
      "lng":127.1093795,
      "address":"경기도 성남시 분당구 성남대로 168, (금곡동) 미도프라자 2층 202, 208호",
      "major":""
   },
   {
      "id":40,
      "name":"분당정자역정형외과의원",
      "lat":37.3681714,
      "lng":127.1062847,
      "address":"경기도 성남시 분당구 성남대로331번길 3-3, (정자동) 젤존타워III 505, 506, 507호",
      "major":""
   },
   {
      "id":41,
      "name":"분당제일여성병원",
      "lat":37.38688,
      "lng":127.121804,
      "address":"경기도 성남시 분당구 서현로180번길 27, (서현동, 분당제일여성병원) 1~6층",
      "major":""
   },
   {
      "id":42,
      "name":"산타마리24의원",
      "lat":37.367673,
      "lng":127.1076817,
      "address":"경기도 성남시 분당구 정자일로198번길 15, (정자동) 제나프라자 106~108호,110호",
      "major":""
   },
   {
      "id":43,
      "name":"삼성린산부인과의원",
      "lat":37.3952618,
      "lng":127.1134958,
      "address":"경기도 성남시 분당구 대왕판교로606번길 58, (삼평동) 판교푸르지오월드마크 2-46호",
      "major":""
   },
   {
      "id":44,
      "name":"삼성에스(S)내과의원",
      "lat":37.4106269,
      "lng":127.1281972,
      "address":"경기도 성남시 분당구 야탑로81번길 10, (야탑동) 분당아미고타워 406, 407호",
      "major":""
   },
   {
      "id":45,
      "name":"삼성편한내과의원",
      "lat":37.3900395,
      "lng":127.0889606,
      "address":"경기도 성남시 분당구 운중로 233, (판교동, 한솔프라자) 202,203호",
      "major":""
   },
   {
      "id":46,
      "name":"상쾌한이비인후과의원",
      "lat":37.3747282,
      "lng":127.1068614,
      "address":"경기도 성남시 분당구 정자일로 248, (정자동, 파크뷰상가) 501호",
      "major":""
   },
   {
      "id":47,
      "name":"상탑성모의원",
      "lat":37.4073916,
      "lng":127.1455183,
      "address":"경기도 성남시 분당구 야탑로 243, (야탑동, 부건프라자) 3층",
      "major":""
   },
   {
      "id":48,
      "name":"새봄이비인후과의원",
      "lat":37.3898417,
      "lng":127.0898018,
      "address":"경기도 성남시 분당구 운중로 239, (판교동) 301호",
      "major":""
   },
   {
      "id":49,
      "name":"서울누리의원",
      "lat":37.360982,
      "lng":127.1051608,
      "address":"경기도 성남시 분당구 정자일로 121, (정자동, 더샵스타파크) 쇼핑몰 2층 H-07호",
      "major":""
   },
   {
      "id":50,
      "name":"서울샤인이비인후과의원",
      "lat":37.3496405,
      "lng":127.1095316,
      "address":"경기도 성남시 분당구 돌마로 68, (구미동) 분당프라자 503,503-1호",
      "major":""
   },
   {
      "id":51,
      "name":"서울소아청소년과의원",
      "lat":37.3742103,
      "lng":127.119083,
      "address":"경기도 성남시 분당구 내정로165번길 10-6, (수내동, 수내프라자) 2층",
      "major":""
   },
   {
      "id":52,
      "name":"서울이비인후과의원",
      "lat":37.3743531,
      "lng":127.1363932,
      "address":"경기도 성남시 분당구 불정로 379, (서현동, 서현프라자) 304호",
      "major":""
   },
   {
      "id":53,
      "name":"서울중앙내과의원",
      "lat":37.3368275,
      "lng":127.1159517,
      "address":"경기도 성남시 분당구 미금로 39, (구미동, 로얄프라자) 205~206호",
      "major":""
   },
   {
      "id":54,
      "name":"서울행복내과의원",
      "lat":37.3631531,
      "lng":127.1144084,
      "address":"경기도 성남시 분당구 정자로 88, (정자동) 성심빌딩 2층",
      "major":""
   },
   {
      "id":55,
      "name":"서지영소아청소년과의원",
      "lat":37.3452587,
      "lng":127.113657,
      "address":"경기도 성남시 분당구 미금일로 55, (구미동, 하얀마을6단지상가동) 201호",
      "major":""
   },
   {
      "id":56,
      "name":"서현365의원",
      "lat":37.3860481,
      "lng":127.1216999,
      "address":"경기도 성남시 분당구 황새울로335번길 5, (서현동) 601호",
      "major":""
   },
   {
      "id":57,
      "name":"서현바른정형외과의원",
      "lat":37.3877815,
      "lng":127.1244603,
      "address":"경기도 성남시 분당구 서현로 192, (서현동) 야베스밸리 2층 201~203호",
      "major":""
   },
   {
      "id":58,
      "name":"선내과의원",
      "lat":37.3497122,
      "lng":127.1117219,
      "address":"경기도 성남시 분당구 돌마로90번길 4, (구미동, 엘레강스프라자) 303호",
      "major":""
   },
   {
      "id":59,
      "name":"선우이비인후과의원",
      "lat":37.3497122,
      "lng":127.1117219,
      "address":"경기도 성남시 분당구 돌마로90번길 4, (구미동, 엘레강스프라자) 305호",
      "major":""
   },
   {
      "id":60,
      "name":"성모원내과의원",
      "lat":37.4095845,
      "lng":127.1300703,
      "address":"경기도 성남시 분당구 야탑로 102, (야탑동) 뉴젠빌원룸텔 201~204호, 206~207호",
      "major":""
   },
   {
      "id":61,
      "name":"속속린내과의원",
      "lat":37.3884513,
      "lng":127.1154129,
      "address":"경기도 성남시 분당구 동판교로 61, (백현동) 자유퍼스트프라자2 601, 602, 603호",
      "major":""
   },
   {
      "id":62,
      "name":"시니어스의원",
      "lat":37.347236,
      "lng":127.1233885,
      "address":"경기도 성남시 분당구 구미로173번길 47, (구미동) 서울시니어스분당타워 비101, 비102호",
      "major":""
   },
   {
      "id":63,
      "name":"심유진이비인후과의원",
      "lat":37.3964792,
      "lng":127.1115011,
      "address":"경기도 성남시 분당구 대왕판교로606번길 39, (삼평동, 럭스타워) 701~702호",
      "major":""
   },
   {
      "id":64,
      "name":"아라본소아청소년과의원",
      "lat":37.3653863,
      "lng":127.1151963,
      "address":"경기도 성남시 분당구 내정로 58, (정자동) 스포라이프 스포츠센타 2층 202호",
      "major":""
   },
   {
      "id":65,
      "name":"애플산부인과의원",
      "lat":37.3855039,
      "lng":127.1222939,
      "address":"경기도 성남시 분당구 황새울로 332, (서현동, 분당문화센터) 5층일부",
      "major":""
   },
   {
      "id":66,
      "name":"애플소아청소년과의원",
      "lat":37.3995005,
      "lng":127.1230285,
      "address":"경기도 성남시 분당구 성남대로779번길 50, (이매동) MDG 1층",
      "major":""
   },
   {
      "id":67,
      "name":"야탑성모이비인후과의원",
      "lat":37.4120644,
      "lng":127.1273037,
      "address":"경기도 성남시 분당구 성남대로925번길 11, (야탑동) 유니마트 213,214일부호",
      "major":""
   },
   {
      "id":68,
      "name":"엠디그린의원",
      "lat":37.3995005,
      "lng":127.1230285,
      "address":"경기도 성남시 분당구 성남대로779번길 50, (이매동) 4층 주사실",
      "major":""
   },
   {
      "id":69,
      "name":"연세가정의학과의원",
      "lat":37.3697372,
      "lng":127.1233265,
      "address":"경기도 성남시 분당구 돌마로356번길 3, (수내동, 그랜드프라자) 317호",
      "major":""
   },
   {
      "id":70,
      "name":"연세두리소아청소년과의원",
      "lat":37.3497074,
      "lng":127.1100577,
      "address":"경기도 성남시 분당구 돌마로 80, (구미동, 현대벤처빌) 2층 6~7호",
      "major":""
   },
   {
      "id":71,
      "name":"연세아름소아과의원",
      "lat":37.4051128,
      "lng":127.1228751,
      "address":"경기도 성남시 분당구 판교로 442, (이매동, 우일프라자) 402호",
      "major":""
   },
   {
      "id":72,
      "name":"연세아이봄여성의원",
      "lat":37.3507847,
      "lng":127.1053966,
      "address":"경기도 성남시 분당구 정자일로 1, (금곡동) 코오롱트리폴리스1 2층 223,224호",
      "major":""
   },
   {
      "id":73,
      "name":"연세우리내과의원",
      "lat":37.397763,
      "lng":127.1114286,
      "address":"경기도 성남시 분당구 판교역로192번길 16, (삼평동) 판교타워 501~502호",
      "major":""
   },
   {
      "id":74,
      "name":"연세제이의원",
      "lat":37.3508413,
      "lng":127.1094628,
      "address":"경기도 성남시 분당구 성남대로 168 309호 연세제이의원 (금곡동)",
      "major":""
   },
   {
      "id":75,
      "name":"연세지니소아청소년과의원",
      "lat":37.4124643,
      "lng":127.1429729,
      "address":"경기도 성남시 분당구 장미로 198, (야탑동) 아델파크빌 1층 104-3일부호, 104-4호",
      "major":""
   },
   {
      "id":76,
      "name":"열린이비인후과의원",
      "lat":37.3386287,
      "lng":127.109344,
      "address":"경기도 성남시 분당구 성남대로 32, (구미동, 보명프라자) 201호",
      "major":""
   },
   {
      "id":77,
      "name":"예이비인후과의원",
      "lat":37.3913767,
      "lng":127.0760574,
      "address":"경기도 성남시 분당구 운중로 118, (운중동, 스타타워) 402,403일부호",
      "major":""
   },
   {
      "id":78,
      "name":"오율의원",
      "lat":37.366974,
      "lng":127.1067364,
      "address":"경기도 성남시 분당구 정자일로 227, (정자동) 백궁지엔느주차전용빌딩 204,205호",
      "major":""
   },
   {
      "id":79,
      "name":"우리가정의학과의원",
      "lat":37.3875145,
      "lng":127.0882616,
      "address":"경기도 성남시 분당구 판교원로 207, (판교동, 판교원마을상가동) 판교 원마을 5단지 상가 204호",
      "major":""
   },
   {
      "id":80,
      "name":"우리의원",
      "lat":37.4077983,
      "lng":127.1411522,
      "address":"경기도 성남시 분당구 벌말로 10, (야탑동, 목련마을 아파트 상가) 201호",
      "major":""
   },
   {
      "id":81,
      "name":"웰봄 소아청소년과의원",
      "lat":37.3693784,
      "lng":127.0636283,
      "address":"경기도 성남시 분당구 판교대장로6길 10, (대장동) 404호, 409~411호",
      "major":""
   },
   {
      "id":82,
      "name":"윙이비인후과의원",
      "lat":37.3942725,
      "lng":127.1103217,
      "address":"경기도 성남시 분당구 판교역로 152, (백현동) 알파돔타워 2층, 지하1층 일부호",
      "major":""
   },
   {
      "id":83,
      "name":"윤호소아과의원",
      "lat":37.3720259,
      "lng":127.1401585,
      "address":"경기도 성남시 분당구 분당로263번길 39, (서현동, 레이디파크) 206호",
      "major":""
   },
   {
      "id":84,
      "name":"의료법인메디피아메디피움분당의원",
      "lat":37.3787091,
      "lng":127.1320684,
      "address":"경기도 성남시 분당구 중앙공원로40번길 32, (서현동)",
      "major":""
   },
   {
      "id":85,
      "name":"의료법인진성 연세모두의원",
      "lat":37.4135078,
      "lng":127.1295646,
      "address":"경기도 성남시 분당구 장미로 78, (야탑동, 시그마Ⅲ) 302,313호",
      "major":""
   },
   {
      "id":86,
      "name":"이창희소아청소년과의원",
      "lat":37.3738961,
      "lng":127.1191482,
      "address":"경기도 성남시 분당구 내정로 167, (수내동, 양지프라임) 302호",
      "major":""
   },
   {
      "id":87,
      "name":"장앤전내과이비인후과의원",
      "lat":37.3741254,
      "lng":127.1194675,
      "address":"경기도 성남시 분당구 내정로173번길 1, (수내동, 우리은행) 5층",
      "major":""
   },
   {
      "id":88,
      "name":"전소아과의원",
      "lat":37.3743291,
      "lng":127.1364058,
      "address":"경기도 성남시 분당구 불정로 379, (서현동, 분당서현프라자) 302호",
      "major":""
   },
   {
      "id":89,
      "name":"젊음 건강 그리고 행복의원",
      "lat":37.3738725,
      "lng":127.1555676,
      "address":"경기도 성남시 분당구 서현로 435, (분당동) 1, 2, 3층",
      "major":""
   },
   {
      "id":90,
      "name":"조아산부인과의원",
      "lat":37.394224,
      "lng":127.1121616,
      "address":"경기도 성남시 분당구 분당내곡로 117, (백현동) 그레이츠 판교 3층 303호",
      "major":""
   },
   {
      "id":91,
      "name":"준이비인후과의원",
      "lat":37.4044195,
      "lng":127.1155934,
      "address":"경기도 성남시 분당구 판교로 375, (삼평동, 메가스페이스1) 502호",
      "major":""
   },
   {
      "id":92,
      "name":"차의과학대학교분당차병원",
      "lat":37.4102496,
      "lng":127.1252498,
      "address":"경기도 성남시 분당구 야탑로 59, (야탑동)",
      "major":""
   },
   {
      "id":93,
      "name":"초림플러스내과의원",
      "lat":37.3780792,
      "lng":127.1132778,
      "address":"경기도 성남시 분당구 백현로101번길 25, (수내동) 수내프라자 4층",
      "major":""
   },
   {
      "id":94,
      "name":"초이스이비인후과의원",
      "lat":37.3706023,
      "lng":127.1229281,
      "address":"경기도 성남시 분당구 돌마로 361, (수내동) 동신코아빌딩 6층 604호",
      "major":""
   },
   {
      "id":95,
      "name":"코모키이비인후과의원",
      "lat":37.3652984,
      "lng":127.0742229,
      "address":"경기도 성남시 분당구 판교대장로6길 10, (대장동) 305~308호",
      "major":""
   },
   {
      "id":96,
      "name":"탑내과의원",
      "lat":37.4037875,
      "lng":127.0999418,
      "address":"경기도 성남시 분당구 판교로255번길 9-22, (삼평동) 105,106호",
      "major":""
   },
   {
      "id":97,
      "name":"튼튼가정의학과의원",
      "lat":37.3884926,
      "lng":127.1153459,
      "address":"경기도 성남시 분당구 동판교로 61 3층,302호 (백현동)",
      "major":""
   },
   {
      "id":98,
      "name":"티엘씨분당의원",
      "lat":37.3680421,
      "lng":127.1055286,
      "address":"경기도 성남시 분당구 정자일로 197, (정자동) 202,203호",
      "major":""
   },
   {
      "id":99,
      "name":"티케이정형외과의원",
      "lat":37.3881421,
      "lng":127.1146141,
      "address":"경기도 성남시 분당구 동판교로 55, (백현동) 로제비앙스퀘어 2,4 전부층 105~110,301~303,305호",
      "major":""
   },
   {
      "id":100,
      "name":"판교 예스의원",
      "lat":37.3975108,
      "lng":127.1120412,
      "address":"경기도 성남시 분당구 대왕판교로 660, (삼평동, 유스페이스1) 304호",
      "major":""
   },
   {
      "id":101,
      "name":"판교미래내과의원",
      "lat":37.3920693,
      "lng":127.0760729,
      "address":"경기도 성남시 분당구 운중로 115, (운중동) 2층 201, 202 호",
      "major":""
   },
   {
      "id":102,
      "name":"판교바른내과의원",
      "lat":37.3652984,
      "lng":127.0742229,
      "address":"경기도 성남시 분당구 판교대장로6길 10, (대장동) 501~511호",
      "major":""
   },
   {
      "id":103,
      "name":"판교서울이비인후과의원",
      "lat":37.3912242,
      "lng":127.0788323,
      "address":"경기도 성남시 분당구 운중로 142, (운중동) 판교메디칼타워 502, 503호",
      "major":""
   },
   {
      "id":104,
      "name":"판교성모내과의원",
      "lat":37.3920693,
      "lng":127.0760729,
      "address":"경기도 성남시 분당구 운중로 115, (운중동) 502호",
      "major":""
   },
   {
      "id":105,
      "name":"퍼스트소아청소년과의원",
      "lat":37.3883735,
      "lng":127.1150102,
      "address":"경기도 성남시 분당구 동판교로 59, (백현동, 자유퍼스트) 4층 405호",
      "major":""
   },
   {
      "id":106,
      "name":"푸른소아청소년과의원",
      "lat":37.3899673,
      "lng":127.0979066,
      "address":"경기도 성남시 분당구 서판교로 36, (판교동, 화령빌딩) 3층 301호",
      "major":""
   },
   {
      "id":107,
      "name":"푸른숲소아청소년과의원",
      "lat":37.3670892,
      "lng":127.1268096,
      "address":"경기도 성남시 분당구 돌마로366번길 42, (수내동, 동한프라자) 2층",
      "major":""
   },
   {
      "id":108,
      "name":"하나소아청소년과의원",
      "lat":37.3378333,
      "lng":127.1165434,
      "address":"경기도 성남시 분당구 미금로 48, (구미동, 오성프라자) 308~309호",
      "major":""
   },
   {
      "id":109,
      "name":"하나이비인후과의원",
      "lat":37.3841012,
      "lng":127.1226373,
      "address":"경기도 성남시 분당구 분당로53번길 20, (서현동) 이랜드분당프라자 402호",
      "major":""
   },
   {
      "id":110,
      "name":"한광선소아청소년과의원",
      "lat":37.41014,
      "lng":127.129237,
      "address":"경기도 성남시 분당구 야탑로 95, (야탑동, 세신옴니코아) 5층 4호",
      "major":""
   },
   {
      "id":111,
      "name":"행복한가정의원",
      "lat":37.3883312,
      "lng":127.1150548,
      "address":"경기도 성남시 분당구 동판교로 59, (백현동) 자유퍼스트프라자1 501호",
      "major":""
   },
   {
      "id":112,
      "name":"황혜영소아과의원",
      "lat":37.3628738,
      "lng":127.1144706,
      "address":"경기도 성남시 분당구 내정로 29, (정자동, 금곡프라자) 207호",
      "major":""
   }
]